{
  "positions": [
    {
      "lat": 37.003185,
      "lng": 126.361809,
      "date" : "2020.03.04",
      "name" : "롯데케미칼(주)대산공장",
      "location": "충남 서산시 대산읍 독곶1로 82",
      "reason" : "압축공정의 가스압축기 3단 토출부 연결배관에서 가스가 누출되면서 원인미상의 점화원에 의해 화재·폭발사고 발생",
      "die" : 0,
      "injury" : 5,
      "industrytype" : 35
    },
    {
      "lat": 35.028338,
      "lng": 128.364578,
      "date" : "2020.6.1",
      "name" : "(주)고려노벨화약",
      "location": "경남 고성군 마암면 당항만로 190(삼락리)",
      "reason" : "산업용 전기 뇌관 제조공정 내 자동화설비에서 저항치 불량이 발생한 뇌관들에 대해 휴대용 저항계를 사용하여 수동으로 저항을 재측정하는 작업과정에서 폭발사고 발생 ",
      "die" : 0,
      "injury" : 4,
      "industrytype" : 35
    },
    {
      "lat": 36.33884892276137,
      "lng": 127.393666019664,
      "date" : "2020.10.16",
      "name" : "롯데케미칼(주) 대산공장(원청) - (주)대신기공(하청)",
      "location": "충남 서산시 대산읍 독곶1로 82",
      "reason" : "Demethanizer 후단 배관의 기밀시험 준비를 위해 그라인더를 사용하여 플랜지 볼트 절단작업 중 화재사고 발생",
      "die" : 1,
      "injury" : 2,
      "industrytype" : 35
    },
    {
      "lat": 37.006522,
      "lng": 126.419432,
      "date" : "2020.3.18",
      "name" : "(주)케이씨씨 대죽2공장(원청) - (주)케이지아이(하청)",
      "location": "충남 서산시 대산읍 대죽2로 35",
      "reason" : "유기실리콘(실란트) 제조공장 MCS증류 공정에서 대정비 보수작업 중, 부산물 탱크 V-2376 상부   배관에 신설 배관을 추가 설치하기 위하여 기존 배관(3/4“)을 핸드그라인더로 절단 작업 중 배관 내부 위험물질이 누출되면서 폭발·화재사고 발생",
      "die" : 1,
      "injury" : 2,
      "industrytype" : 41
    },
    {
      "lat": 37.006702,
      "lng": 126.419454,
      "date" : "2018.05.09",
      "name": "한전KPS㈜(하청)",
      "location": "충남 보령시 오천면 오포리 산 212",
      "reason" : "경상정비공사 중 복수탈염설비 CPP Acid Feed Pump 전단 밸브 및 스트레이너 교체작업 중 발생한 염산 누출 사고 발생",
      "die" : 0,
      "injury" : 1,
      "industrytype" : 35
    }
  ]
}