{
  "positions": [
    {
      "lat": 37.003185,
      "lng": 126.361809,
      "date" : "2020.03.04",
      "name" : "롯데케미칼(주)대산공장",
      "location": "충남 서산시 대산읍 독곶1로 82",
      "reason" : "압축공정의 가스압축기 3단 토출부 연결배관에서 가스가 누출되면서 원인미상의 점화원에 의해 화재·폭발사고 발생",
      "die" : 0,
      "injury" : 5,
      "industrytype" : 20
    },
    {
      "lat": 35.028338,
      "lng": 128.364578,
      "date" : "2020.6.1",
      "name" : "(주)고려노벨화약",
      "location": "경남 고성군 마암면 당항만로 190(삼락리)",
      "reason" : "산업용 전기 뇌관 제조공정 내 자동화설비에서 저항치 불량이 발생한 뇌관들에 대해 휴대용 저항계를 사용하여 수동으로 저항을 재측정하는 작업과정에서 폭발사고 발생 ",
      "die" : 0,
      "injury" : 4,
      "industrytype" : 20
    },
    {
      "lat": 36.33884892276137,
      "lng": 127.393666019664,
      "date" : "2020.10.16",
      "name" : "롯데케미칼(주) 대산공장(원청) - (주)대신기공(하청)",
      "location": "충남 서산시 대산읍 독곶1로 82",
      "reason" : "Demethanizer 후단 배관의 기밀시험 준비를 위해 그라인더를 사용하여 플랜지 볼트 절단작업 중 화재사고 발생",
      "die" : 1,
      "injury" : 2,
      "industrytype" : 20
    },
    {
      "lat": 37.006522,
      "lng": 126.419432,
      "date" : "2020.3.18",
      "name" : "(주)케이씨씨 대죽2공장(원청) - (주)케이지아이(하청)",
      "location": "충남 서산시 대산읍 대죽2로 35",
      "reason" : "유기실리콘(실란트) 제조공장 MCS증류 공정에서 대정비 보수작업 중, 부산물 탱크 V-2376 상부   배관에 신설 배관을 추가 설치하기 위하여 기존 배관(3/4“)을 핸드그라인더로 절단 작업 중 배관 내부 위험물질이 누출되면서 폭발·화재사고 발생",
      "die" : 1,
      "injury" : 2,
      "industrytype" : 7
    },
    {
      "lat": 37.006702,
      "lng": 126.419454,
      "date" : "2018.05.09",
      "name": "한전KPS㈜(하청)",
      "location": "충남 보령시 오천면 오포리 산 212",
      "reason" : "경상정비공사 중 복수탈염설비 CPP Acid Feed Pump 전단 밸브 및 스트레이너 교체작업 중 발생한 염산 누출 사고 발생",
      "die" : 0,
      "injury" : 1,
      "industrytype" : 40
    },
    {
      "lat": 37.509122,
      "lng": 126.963502,
      "date" : "2023.09.20",
      "name" : "(주)한국화학",
      "location": "서울특별시 영등포구 여의대방로 22",
      "reason" : "화학공정 중 가스 누출로 인한 화재 발생",
      "die" : 2,
      "injury" : 7,
      "industrytype" : 20
    },
    {
      "lat": 35.160965,
      "lng": 129.051624,
      "date" : "2023.11.13",
      "name" : "(주)부산제철소",
      "location": "부산광역시 사하구 하신번영로 489",
      "reason" : "제철 공정 중 불량 장비로 인한 폭발사고 발생",
      "die" : 1,
      "injury" : 10,
      "industrytype" : 6
    },
    {
      "lat": 35.871435,
      "lng": 128.601445,
      "date" : "2023.12.10",
      "name" : "(주)대구전력",
      "location": "대구광역시 중구 국채보상로 586",
      "reason" : "전력설비 과부하로 인한 전기화재 발생",
      "die" : 0,
      "injury" : 3,
      "industrytype" : 40
    },
    {
      "lat": 37.466530,
      "lng": 126.960745,
      "date" : "2023.10.05",
      "name" : "(주)서울제약",
      "location": "서울특별시 동작구 보라매로 5",
      "reason" : "제약 공정 중 화학물질 누출로 인한 화재 발생",
      "die" : 0,
      "injury" : 3,
      "industrytype" : 21
    },
    {
      "lat": 35.179554,
      "lng": 129.075642,
      "date" : "2023.10.22",
      "name" : "(주)부산조선",
      "location": "부산광역시 서구 충무대로 123",
      "reason" : "조선 공정 중 불량 장비로 인한 폭발사고 발생",
      "die" : 1,
      "injury" : 5,
      "industrytype" : 31
    },
    {
      "lat": 35.866774,
      "lng": 128.592873,
      "date" : "2023.11.15",
      "name" : "(주)대구전자",
      "location": "대구광역시 달서구 달구벌대로 1557",
      "reason" : "전자 부품 제조 공정 중 과부하로 인한 전기화재 발생",
      "die" : 2,
      "injury" : 8,
      "industrytype" : 40
    },
    {
      "lat": 37.456256,
      "lng": 126.705206,
      "date" : "2023.12.05",
      "name" : "(주)인천화학",
      "location": "인천광역시 서구 원창로 87",
      "reason" : "화학 공정 중 누출된 가스에 의한 화재사고 발생",
      "die" : 0,
      "injury" : 4,
      "industrytype" : 20
    },
    {
      "lat": 35.538377,
      "lng": 129.311360,
      "date" : "2023.12.20",
      "name" : "(주)울산제철소",
      "location": "울산광역시 남구 신복로 20",
      "reason" : "제철 공정 중 불량 장비로 인한 폭발사고 발생",
      "die" : 1,
      "injury" : 6,
      "industrytype" : 6
    },
    {
      "lat": 37.452858,
      "lng": 126.699066,
      "date" : "2023.07.30",
      "name" : "(주)인천제철",
      "location": "인천광역시 서구 청라라임로 46",
      "reason" : "제철 공정 중 불량 장비로 인한 폭발사고 발생",
      "die" : 3,
      "injury" : 2,
      "industrytype" : 6
    },
    {
      "lat": 35.871380,
      "lng": 128.601783,
      "date" : "2023.08.15",
      "name" : "(주)대구제약",
      "location": "대구광역시 중구 동덕로 35",
      "reason" : "제약 공정 중 화학물질 누출로 인한 화재 발생",
      "die" : 0,
      "injury" : 5,
      "industrytype" : 21
    },
    {
      "lat": 35.102411,
      "lng": 129.040283,
      "date" : "2023.09.10",
      "name" : "(주)부산전력",
      "location": "부산광역시 사하구 하신번영로 489",
      "reason" : "전력설비 과부하로 인한 전기화재 발생",
      "die" : 1,
      "injury" : 8,
      "industrytype" : 40
    },
    {
      "lat": 37.566536,
      "lng": 126.977966,
      "date" : "2023.10.22",
      "name" : "(주)서울전자",
      "location": "서울특별시 중구 세종대로 111",
      "reason" : "전자 부품 제조 공정 중 과부하로 인한 전기화재 발생",
      "die" : 2,
      "injury" : 3,
      "industrytype" : 40
    },
    {
      "lat": 35.537998,
      "lng": 129.316599,
      "date" : "2023.11.05",
      "name" : "(주)울산화학",
      "location": "울산광역시 동구 방어진순환도로 652",
      "reason" : "화학 공정 중 누출된 가스에 의한 화재사고 발생",
      "die" : 1,
      "injury" : 7,
      "industrytype" : 20
    },
    {
      "lat": 37.452858,
      "lng": 126.699066,
      "date" : "2023.07.30",
      "name" : "(주)인천제철",
      "location": "인천광역시 서구 청라라임로 46",
      "reason" : "제철 공정 중 불량 장비로 인한 폭발사고 발생",
      "die" : 3,
      "injury" : 2,
      "industrytype" : 6
    },
    {
      "lat": 35.871380,
      "lng": 128.601783,
      "date" : "2023.08.15",
      "name" : "(주)대구제약",
      "location": "대구광역시 중구 동덕로 35",
      "reason" : "제약 공정 중 화학물질 누출로 인한 화재 발생",
      "die" : 0,
      "injury" : 5,
      "industrytype" : 21
    },
    {
      "lat": 35.102411,
      "lng": 129.040283,
      "date" : "2023.09.10",
      "name" : "(주)부산전력",
      "location": "부산광역시 사하구 하신번영로 489",
      "reason" : "전력설비 과부하로 인한 전기화재 발생",
      "die" : 1,
      "injury" : 8,
      "industrytype" : 40
    },
    {
      "lat": 37.566536,
      "lng": 126.977966,
      "date" : "2023.10.22",
      "name" : "(주)서울전자",
      "location": "서울특별시 중구 세종대로 110",
      "reason" : "전자 부품 제조 공정 중 과부하로 인한 전기화재 발생",
      "die" : 2,
      "injury" : 3,
      "industrytype" : 40
    },
    {
      "lat": 35.537998,
      "lng": 129.316599,
      "date" : "2023.11.05",
      "name" : "(주)울산화학",
      "location": "울산광역시 동구 방어진순환도로 652",
      "reason" : "화학 공정 중 누출된 가스에 의한 화재사고 발생",
      "die" : 1,
      "injury" : 7,
      "industrytype" : 20
    },
    {
      "lat": 37.503413,
      "lng": 127.049375,
      "date" : "2023.01.13",
      "name" : "(주)서울전자",
      "location": "서울특별시 강남구 테헤란로 152",
      "reason" : "전자 부품 제조 공정 중 과부하로 인한 전기화재 발생",
      "die" : 1,
      "injury" : 4,
      "industrytype" :40
    },
    {
      "lat": 35.104912,
      "lng": 129.020560,
      "date" : "2023.02.21",
      "name" : "(주)부산화학",
      "location": "부산광역시 서구 대신공원로 1",
      "reason" : "화학 공정 중 누출된 가스에 의한 폭발사고 발생",
      "die" : 2,
      "injury" : 5,
      "industrytype" : 20
    },
    {
      "lat": 35.879729,
      "lng": 128.628906,
      "date" : "2023.03.30",
      "name" : "(주)대구화학",
      "location": "대구광역시 북구 칠곡중앙대로 52",
      "reason" : "화학 공정 중 누출된 가스에 의한 화재사고 발생",
      "die" : 0,
      "injury" : 3,
      "industrytype" : 20
    },
    {
      "lat": 37.449511,
      "lng": 126.657625,
      "date" : "2023.04.18",
      "name" : "(주)인천전자",
      "location": "인천광역시 남동구 남동서로 346",
      "reason" : "전자 부품 제조 공정 중 과부하로 인한 전기화재 발생",
      "die" : 2,
      "injury" : 2,
      "industrytype" : 40
    },
    {
      "lat": 35.552482,
      "lng": 129.337703,
      "date" : "2023.05.27",
      "name" : "(주)울산전자",
      "location": "울산광역시 남구 신복로 20",
      "reason" : "전자 부품 제조 공정 중 과부하로 인한 전기화재 발생",
      "die" : 1,
      "injury" : 4,
      "industrytype" : 40
    }
  ]
}